[
  {
    "X": "-73.98299996",
    "Y": "40.73443169",
    "OBJECTID": "13598",
    "ID": "17910003",
    "NAME": "NYU HOSPITAL FOR JOINT DISEASES",
    "ADDRESS": "301 E 17TH ST",
    "CITY": "NEW YORK",
    "STATE": "NY",
    "ZIP": "10003",
    "ZIP4": "NOT AVAILABLE",
    "TELEPHONE": "(212) 598-6000",
    "TYPE": "GENERAL ACUTE CARE",
    "STATUS": "OPEN",
    "POPULATION": "225",
    "COUNTY": "NEW YORK",
    "COUNTYFIPS": "36061",
    "COUNTRY": "USA",
    "LATITUDE": "40.73443169",
    "LONGITUDE": "-73.98299996",
    "NAICS_CODE": "622110",
    "NAICS_DESC": "GENERAL MEDICAL AND SURGICAL HOSPITALS",
    "SOURCE": "http://www.health.ny.gov/regulations/hcra/provider.htm",
    "SOURCEDATE": "2017-12-21T00:00:00.000Z",
    "VAL_METHOD": "IMAGERY WITH OTHER",
    "VAL_DATE": "2017-12-22T00:00:00.000Z",
    "WEBSITE": "http://www.med.nyu.edu/hjd/",
    "STATE_ID": "1446",
    "ALT_NAME": "NOT AVAILABLE",
    "ST_FIPS": "36.0",
    "OWNER": "NON-PROFIT",
    "TTL_STAFF": "-999.0",
    "BEDS": "225.0",
    "TRAUMA": "NOT AVAILABLE",
    "HELIPAD": "NOT AVAILABLE"
  },
  {
    "X": "-73.95231485",
    "Y": "40.76492338",
    "OBJECTID": "13599",
    "ID": "18010021",
    "NAME": "HOSPITAL FOR SPECIAL SURGERY",
    "ADDRESS": "535 EAST 70TH ST",
    "CITY": "NEW YORK",
    "STATE": "NY",
    "ZIP": "10021",
    "ZIP4": "NOT AVAILABLE",
    "TELEPHONE": "(212) 606-1236",
    "TYPE": "SPECIAL",
    "STATUS": "OPEN",
    "POPULATION": "215",
    "COUNTY": "NEW YORK",
    "COUNTYFIPS": "36061",
    "COUNTRY": "USA",
    "LATITUDE": "40.76492338",
    "LONGITUDE": "-73.95231485",
    "NAICS_CODE": "622310",
    "NAICS_DESC": "HOSPITALS, SPECIALTY (EXCEPT PSYCHIATRIC, SUBSTANCE ABUSE)",
    "SOURCE": "http://www.health.ny.gov/regulations/hcra/provider.htm",
    "SOURCEDATE": "2017-12-21T00:00:00.000Z",
    "VAL_METHOD": "IMAGERY WITH OTHER",
    "VAL_DATE": "2017-12-22T00:00:00.000Z",
    "WEBSITE": "http://www.hss.edu",
    "STATE_ID": "7002012H",
    "ALT_NAME": "NOT AVAILABLE",
    "ST_FIPS": "36.0",
    "OWNER": "NON-PROFIT",
    "TTL_STAFF": "-999.0",
    "BEDS": "215.0",
    "TRAUMA": "NOT AVAILABLE",
    "HELIPAD": "NOT AVAILABLE"
  },
  {
    "X": "-73.96089077",
    "Y": "40.77370268",
    "OBJECTID": "13600",
    "ID": "18110021",
    "NAME": "LENOX HILL HOSPITAL",
    "ADDRESS": "100 E 77TH ST",
    "CITY": "NEW YORK",
    "STATE": "NY",
    "ZIP": "10021",
    "ZIP4": "NOT AVAILABLE",
    "TELEPHONE": "(212) 434-2060",
    "TYPE": "GENERAL ACUTE CARE",
    "STATUS": "OPEN",
    "POPULATION": "632",
    "COUNTY": "NEW YORK",
    "COUNTYFIPS": "36061",
    "COUNTRY": "USA",
    "LATITUDE": "40.77370268",
    "LONGITUDE": "-73.96089077",
    "NAICS_CODE": "622110",
    "NAICS_DESC": "GENERAL MEDICAL AND SURGICAL HOSPITALS",
    "SOURCE": "http://www.health.ny.gov/regulations/hcra/provider.htm",
    "SOURCEDATE": "2017-12-21T00:00:00.000Z",
    "VAL_METHOD": "IMAGERY WITH OTHER",
    "VAL_DATE": "2017-12-22T00:00:00.000Z",
    "WEBSITE": "http://www.lenoxhillhospital.org",
    "STATE_ID": "7002017H",
    "ALT_NAME": "NOT AVAILABLE",
    "ST_FIPS": "36.0",
    "OWNER": "NON-PROFIT",
    "TTL_STAFF": "-999.0",
    "BEDS": "632.0",
    "TRAUMA": "NOT AVAILABLE",
    "HELIPAD": "NOT AVAILABLE"
  },
  {
    "X": "-73.94453023",
    "Y": "40.78492694",
    "OBJECTID": "13601",
    "ID": "18210029",
    "NAME": "METROPOLITAN HOSPITAL CENTER",
    "ADDRESS": "1901 1ST AVE",
    "CITY": "NEW YORK",
    "STATE": "NY",
    "ZIP": "10029",
    "ZIP4": "NOT AVAILABLE",
    "TELEPHONE": "(212) 423-8993",
    "TYPE": "GENERAL ACUTE CARE",
    "STATUS": "OPEN",
    "POPULATION": "338",
    "COUNTY": "NEW YORK",
    "COUNTYFIPS": "36061",
    "COUNTRY": "USA",
    "LATITUDE": "40.78492694",
    "LONGITUDE": "-73.94453023",
    "NAICS_CODE": "622110",
    "NAICS_DESC": "GENERAL MEDICAL AND SURGICAL HOSPITALS",
    "SOURCE": "http://www.health.ny.gov/regulations/hcra/provider.htm",
    "SOURCEDATE": "2017-12-21T00:00:00.000Z",
    "VAL_METHOD": "IMAGERY",
    "VAL_DATE": "2017-12-22T00:00:00.000Z",
    "WEBSITE": "http://www.nyc.gov/html/hhc/mhc/html/home/home.shtml",
    "STATE_ID": "7002021H",
    "ALT_NAME": "NOT AVAILABLE",
    "ST_FIPS": "36.0",
    "OWNER": "GOVERNMENT - LOCAL",
    "TTL_STAFF": "-999.0",
    "BEDS": "338.0",
    "TRAUMA": "NOT AVAILABLE",
    "HELIPAD": "NOT AVAILABLE"
  },
  {
    "X": "-73.98448331",
    "Y": "40.73185306",
    "OBJECTID": "13602",
    "ID": "18410003",
    "NAME": "NEW YORK EYE AND EAR INFIRMARY",
    "ADDRESS": "310 E 14TH ST",
    "CITY": "NEW YORK",
    "STATE": "NY",
    "ZIP": "10003",
    "ZIP4": "NOT AVAILABLE",
    "TELEPHONE": "(212) 979-4000",
    "TYPE": "SPECIAL",
    "STATUS": "OPEN",
    "POPULATION": "69",
    "COUNTY": "NEW YORK",
    "COUNTYFIPS": "36061",
    "COUNTRY": "USA",
    "LATITUDE": "40.73185306",
    "LONGITUDE": "-73.98448331",
    "NAICS_CODE": "622310",
    "NAICS_DESC": "EYE, EAR, NOSE, AND THROAT HOSPITALS",
    "SOURCE": "http://www.health.ny.gov/regulations/hcra/provider.htm",
    "SOURCEDATE": "2017-12-21T00:00:00.000Z",
    "VAL_METHOD": "IMAGERY",
    "VAL_DATE": "2017-12-22T00:00:00.000Z",
    "WEBSITE": "http://www.nyee.edu",
    "STATE_ID": "7002026H",
    "ALT_NAME": "NOT AVAILABLE",
    "ST_FIPS": "36.0",
    "OWNER": "NON-PROFIT",
    "TTL_STAFF": "-999.0",
    "BEDS": "69.0",
    "TRAUMA": "NOT AVAILABLE",
    "HELIPAD": "NOT AVAILABLE"
  },
  {
    "X": "-73.94128258",
    "Y": "40.83976326",
    "OBJECTID": "13603",
    "ID": "18610032",
    "NAME": "NEW YORK PRESBYTERIAN MORGAN STANLEY CHILDREN'S HOSPITAL",
    "ADDRESS": "3959 BROADWAY",
    "CITY": "NEW YORK",
    "STATE": "NY",
    "ZIP": "10032",
    "ZIP4": "NOT AVAILABLE",
    "TELEPHONE": "(212) 305-5437",
    "TYPE": "CHILDREN",
    "STATUS": "OPEN",
    "POPULATION": "190",
    "COUNTY": "NEW YORK",
    "COUNTYFIPS": "36061",
    "COUNTRY": "USA",
    "LATITUDE": "40.83976326",
    "LONGITUDE": "-73.94128258",
    "NAICS_CODE": "622110",
    "NAICS_DESC": "CHILDREN'S HOSPITALS, GENERAL",
    "SOURCE": "http://www.health.ny.gov/regulations/hcra/provider.htm",
    "SOURCEDATE": "2017-12-21T00:00:00.000Z",
    "VAL_METHOD": "IMAGERY",
    "VAL_DATE": "2017-12-22T00:00:00.000Z",
    "WEBSITE": "http://www.nyp.org/morganstanley",
    "STATE_ID": "1464",
    "ALT_NAME": "NOT AVAILABLE",
    "ST_FIPS": "36.0",
    "OWNER": "NON-PROFIT",
    "TTL_STAFF": "-999.0",
    "BEDS": "190.0",
    "TRAUMA": "I PEDIATRIC",
    "HELIPAD": "NOT AVAILABLE"
  },
  {
    "X": "-73.95321427",
    "Y": "40.78976753",
    "OBJECTID": "13604",
    "ID": "18710001",
    "NAME": "MOUNT SINAI HOSPITAL",
    "ADDRESS": "1 GUSTAVE L LEVY PL",
    "CITY": "NEW YORK",
    "STATE": "NY",
    "ZIP": "10001",
    "ZIP4": "NOT AVAILABLE",
    "TELEPHONE": "(212) 241-7005",
    "TYPE": "GENERAL ACUTE CARE",
    "STATUS": "OPEN",
    "POPULATION": "1144",
    "COUNTY": "NEW YORK",
    "COUNTYFIPS": "36061",
    "COUNTRY": "USA",
    "LATITUDE": "40.78976753",
    "LONGITUDE": "-73.95321427",
    "NAICS_CODE": "622110",
    "NAICS_DESC": "GENERAL MEDICAL AND SURGICAL HOSPITALS",
    "SOURCE": "http://www.health.ny.gov/regulations/hcra/provider.htm",
    "SOURCEDATE": "2017-12-21T00:00:00.000Z",
    "VAL_METHOD": "IMAGERY WITH OTHER",
    "VAL_DATE": "2017-12-22T00:00:00.000Z",
    "WEBSITE": "http://www.mountsinai.org",
    "STATE_ID": "7002024H",
    "ALT_NAME": "NOT AVAILABLE",
    "ST_FIPS": "36.0",
    "OWNER": "NON-PROFIT",
    "TTL_STAFF": "-999.0",
    "BEDS": "1144.0",
    "TRAUMA": "NOT AVAILABLE",
    "HELIPAD": "NOT AVAILABLE"
  },
  {
    "X": "-73.98680839",
    "Y": "40.76941213",
    "OBJECTID": "13605",
    "ID": "18810019",
    "NAME": "THE ADDICTION INSTITUTE OF NEW YORK",
    "ADDRESS": "1000 10TH AVE",
    "CITY": "NEW YORK",
    "STATE": "NY",
    "ZIP": "10019",
    "ZIP4": "NOT AVAILABLE",
    "TELEPHONE": "(212) 256-3800",
    "TYPE": "PSYCHIATRIC",
    "STATUS": "CLOSED",
    "POPULATION": "-999",
    "COUNTY": "NEW YORK",
    "COUNTYFIPS": "36061",
    "COUNTRY": "USA",
    "LATITUDE": "40.76941213",
    "LONGITUDE": "-73.9868084",
    "NAICS_CODE": "622210",
    "NAICS_DESC": "HOSPITALS, PSYCHIATRIC (EXCEPT CONVALESCENT)",
    "SOURCE": "http://www.health.ny.gov/regulations/hcra/provider.htm",
    "SOURCEDATE": "2017-12-21T00:00:00.000Z",
    "VAL_METHOD": "IMAGERY",
    "VAL_DATE": "2017-12-22T00:00:00.000Z",
    "WEBSITE": "http://www.stlukeshospitalnyc.org/Addiction.aspx",
    "STATE_ID": "1466",
    "ALT_NAME": "NOT AVAILABLE",
    "ST_FIPS": "36.0",
    "OWNER": "NON-PROFIT",
    "TTL_STAFF": "-999.0",
    "BEDS": "-999.0",
    "TRAUMA": "NOT AVAILABLE",
    "HELIPAD": "NOT AVAILABLE"
  },
  {
    "X": "-73.95302135",
    "Y": "40.7697165",
    "OBJECTID": "13606",
    "ID": "18910021",
    "NAME": "GRACIE SQUARE HOSPITAL",
    "ADDRESS": "420 E 76TH ST,2ND, 3RD, 4TH & 5TH FLOORS",
    "CITY": "NEW YORK",
    "STATE": "NY",
    "ZIP": "10021",
    "ZIP4": "NOT AVAILABLE",
    "TELEPHONE": "(212) 988-4400",
    "TYPE": "PSYCHIATRIC",
    "STATUS": "OPEN",
    "POPULATION": "157",
    "COUNTY": "NEW YORK",
    "COUNTYFIPS": "36061",
    "COUNTRY": "USA",
    "LATITUDE": "40.7697165",
    "LONGITUDE": "-73.95302135",
    "NAICS_CODE": "622210",
    "NAICS_DESC": "HOSPITALS, PSYCHIATRIC (EXCEPT CONVALESCENT)",
    "SOURCE": "http://www.health.ny.gov/regulations/hcra/provider.htm",
    "SOURCEDATE": "2017-12-21T00:00:00.000Z",
    "VAL_METHOD": "IMAGERY WITH OTHER",
    "VAL_DATE": "2017-12-22T00:00:00.000Z",
    "WEBSITE": "http://www.nygsh.org",
    "STATE_ID": "1458",
    "ALT_NAME": "NOT AVAILABLE",
    "ST_FIPS": "36.0",
    "OWNER": "NON-PROFIT",
    "TTL_STAFF": "-999.0",
    "BEDS": "157.0",
    "TRAUMA": "NOT AVAILABLE",
    "HELIPAD": "NOT AVAILABLE"
  },
  {
    "X": "-73.95628185",
    "Y": "40.75483575",
    "OBJECTID": "13609",
    "ID": "19310044",
    "NAME": "GOLDWATER SPECIALTY HOSPITAL",
    "ADDRESS": "1 MAIN STREET ROOSEVELT ISLAND",
    "CITY": "NEW YORK",
    "STATE": "NY",
    "ZIP": "10044",
    "ZIP4": "NOT AVAILABLE",
    "TELEPHONE": "(212) 318-8000",
    "TYPE": "GENERAL ACUTE CARE",
    "STATUS": "CLOSED",
    "POPULATION": "1000",
    "COUNTY": "NEW YORK",
    "COUNTYFIPS": "36061",
    "COUNTRY": "USA",
    "LATITUDE": "40.75483575",
    "LONGITUDE": "-73.95628185",
    "NAICS_CODE": "622110",
    "NAICS_DESC": "GENERAL MEDICAL AND SURGICAL HOSPITALS",
    "SOURCE": "http://www.health.ny.gov/regulations/hcra/provider.htm",
    "SOURCEDATE": "2017-12-21T00:00:00.000Z",
    "VAL_METHOD": "GEOCODE",
    "VAL_DATE": "2017-12-22T00:00:00.000Z",
    "WEBSITE": "http://www.nyc.gov/html/hhc/coler-goldwater/home.html",
    "STATE_ID": "1486",
    "ALT_NAME": "NOT AVAILABLE",
    "ST_FIPS": "36.0",
    "OWNER": "GOVERNMENT - LOCAL",
    "TTL_STAFF": "-999.0",
    "BEDS": "1000.0",
    "TRAUMA": "NOT AVAILABLE",
    "HELIPAD": "NOT AVAILABLE"
  },
  {
    "X": "-73.97538175",
    "Y": "40.7393201",
    "OBJECTID": "13633",
    "ID": "114010016",
    "NAME": "BELLEVUE HOSPITAL CENTER",
    "ADDRESS": "462 FIRST AVENUE",
    "CITY": "NEW YORK",
    "STATE": "NY",
    "ZIP": "10016",
    "ZIP4": "NOT AVAILABLE",
    "TELEPHONE": "(212) 562-4132",
    "TYPE": "GENERAL ACUTE CARE",
    "STATUS": "OPEN",
    "POPULATION": "912",
    "COUNTY": "NEW YORK",
    "COUNTYFIPS": "36061",
    "COUNTRY": "USA",
    "LATITUDE": "40.7393201",
    "LONGITUDE": "-73.97538175",
    "NAICS_CODE": "622110",
    "NAICS_DESC": "GENERAL MEDICAL AND SURGICAL HOSPITALS",
    "SOURCE": "http://www.health.ny.gov/regulations/hcra/provider.htm",
    "SOURCEDATE": "2017-12-21T00:00:00.000Z",
    "VAL_METHOD": "IMAGERY WITH OTHER",
    "VAL_DATE": "2017-12-22T00:00:00.000Z",
    "WEBSITE": "http://www.nychealthandhospitals.org/bellevue/html/home/home.shtml",
    "STATE_ID": "7002001H",
    "ALT_NAME": "NOT AVAILABLE",
    "ST_FIPS": "36.0",
    "OWNER": "GOVERNMENT - LOCAL",
    "TTL_STAFF": "-999.0",
    "BEDS": "912.0",
    "TRAUMA": "I",
    "HELIPAD": "NOT AVAILABLE"
  },
  {
    "X": "-74.00074457",
    "Y": "40.73773991",
    "OBJECTID": "13639",
    "ID": "114710011",
    "NAME": "LENOX HILL HEALTHPLEX",
    "ADDRESS": "30 SEVENTH AVENUE",
    "CITY": "NEW YORK",
    "STATE": "NY",
    "ZIP": "10011",
    "ZIP4": "NOT AVAILABLE",
    "TELEPHONE": "NOT AVAILABLE",
    "TYPE": "GENERAL ACUTE CARE",
    "STATUS": "CLOSED",
    "POPULATION": "-999",
    "COUNTY": "NEW YORK",
    "COUNTYFIPS": "36061",
    "COUNTRY": "USA",
    "LATITUDE": "40.73773991",
    "LONGITUDE": "-74.00074457",
    "NAICS_CODE": "622110",
    "NAICS_DESC": "GENERAL MEDICAL AND SURGICAL HOSPITALS",
    "SOURCE": "http://www.health.ny.gov/regulations/hcra/provider.htm",
    "SOURCEDATE": "2017-12-21T00:00:00.000Z",
    "VAL_METHOD": "IMAGERY WITH OTHER",
    "VAL_DATE": "2017-12-22T00:00:00.000Z",
    "WEBSITE": "NOT AVAILABLE",
    "STATE_ID": "NOT AVAILABLE",
    "ALT_NAME": "NOT AVAILABLE",
    "ST_FIPS": "36.0",
    "OWNER": "NOT AVAILABLE",
    "TTL_STAFF": "-999.0",
    "BEDS": "-999.0",
    "TRAUMA": "NOT AVAILABLE",
    "HELIPAD": "NOT AVAILABLE"
  },
  {
    "X": "-73.91305033",
    "Y": "40.87327524",
    "OBJECTID": "13649",
    "ID": "115610034",
    "NAME": "NEW YORK PRESBYTERIAN HOSPITAL - ALLEN HOSPITAL",
    "ADDRESS": "5141 BROADWAY",
    "CITY": "NEW YORK",
    "STATE": "NY",
    "ZIP": "10034",
    "ZIP4": "NOT AVAILABLE",
    "TELEPHONE": "(212) 932-4000",
    "TYPE": "GENERAL ACUTE CARE",
    "STATUS": "OPEN",
    "POPULATION": "196",
    "COUNTY": "NEW YORK",
    "COUNTYFIPS": "36061",
    "COUNTRY": "USA",
    "LATITUDE": "40.87327524",
    "LONGITUDE": "-73.91305033",
    "NAICS_CODE": "622110",
    "NAICS_DESC": "GENERAL MEDICAL AND SURGICAL HOSPITALS",
    "SOURCE": "http://www.health.ny.gov/regulations/hcra/provider.htm",
    "SOURCEDATE": "2017-12-21T00:00:00.000Z",
    "VAL_METHOD": "IMAGERY WITH OTHER",
    "VAL_DATE": "2017-12-22T00:00:00.000Z",
    "WEBSITE": "http://www.nyp.org/allenhospital",
    "STATE_ID": "7099003H",
    "ALT_NAME": "NOT AVAILABLE",
    "ST_FIPS": "36.0",
    "OWNER": "NON-PROFIT",
    "TTL_STAFF": "-999.0",
    "BEDS": "196.0",
    "TRAUMA": "NOT AVAILABLE",
    "HELIPAD": "NOT AVAILABLE"
  },
  {
    "X": "-73.95462317",
    "Y": "40.76304744",
    "OBJECTID": "13657",
    "ID": "116610021",
    "NAME": "ROCKEFELLER UNIVERSITY HOSPITAL",
    "ADDRESS": "1230 YORK AVENUE",
    "CITY": "NEW YORK",
    "STATE": "NY",
    "ZIP": "10021",
    "ZIP4": "NOT AVAILABLE",
    "TELEPHONE": "(212) 327-7511",
    "TYPE": "GENERAL ACUTE CARE",
    "STATUS": "OPEN",
    "POPULATION": "40",
    "COUNTY": "NEW YORK",
    "COUNTYFIPS": "36061",
    "COUNTRY": "USA",
    "LATITUDE": "40.76304744",
    "LONGITUDE": "-73.95462317",
    "NAICS_CODE": "622110",
    "NAICS_DESC": "GENERAL MEDICAL AND SURGICAL HOSPITALS",
    "SOURCE": "http://www.health.ny.gov/regulations/hcra/provider.htm",
    "SOURCEDATE": "2017-12-21T00:00:00.000Z",
    "VAL_METHOD": "IMAGERY WITH OTHER",
    "VAL_DATE": "2017-12-22T00:00:00.000Z",
    "WEBSITE": "https://www.rucares.org/",
    "STATE_ID": "7002031H",
    "ALT_NAME": "NOT AVAILABLE",
    "ST_FIPS": "36.0",
    "OWNER": "GOVERNMENT - STATE",
    "TTL_STAFF": "-999.0",
    "BEDS": "40.0",
    "TRAUMA": "NOT AVAILABLE",
    "HELIPAD": "NOT AVAILABLE"
  },
  {
    "X": "-73.93986126",
    "Y": "40.81426493",
    "OBJECTID": "13658",
    "ID": "116710037",
    "NAME": "HARLEM HOSPITAL CENTER",
    "ADDRESS": "506 LENOX AVENUE",
    "CITY": "NEW YORK",
    "STATE": "NY",
    "ZIP": "10037",
    "ZIP4": "NOT AVAILABLE",
    "TELEPHONE": "(212) 939-1000",
    "TYPE": "GENERAL ACUTE CARE",
    "STATUS": "OPEN",
    "POPULATION": "282",
    "COUNTY": "NEW YORK",
    "COUNTYFIPS": "36061",
    "COUNTRY": "USA",
    "LATITUDE": "40.81426493",
    "LONGITUDE": "-73.93986126",
    "NAICS_CODE": "622110",
    "NAICS_DESC": "GENERAL MEDICAL AND SURGICAL HOSPITALS",
    "SOURCE": "http://www.health.ny.gov/regulations/hcra/provider.htm",
    "SOURCEDATE": "2017-12-21T00:00:00.000Z",
    "VAL_METHOD": "IMAGERY WITH OTHER",
    "VAL_DATE": "2017-12-22T00:00:00.000Z",
    "WEBSITE": "http://www.nychealthandhospitals.org/harlem/html/home/home.shtml",
    "STATE_ID": "7002009H",
    "ALT_NAME": "NOT AVAILABLE",
    "ST_FIPS": "36.0",
    "OWNER": "GOVERNMENT - LOCAL",
    "TTL_STAFF": "-999.0",
    "BEDS": "282.0",
    "TRAUMA": "II",
    "HELIPAD": "NOT AVAILABLE"
  },
  {
    "X": "-73.94162385",
    "Y": "40.80328511",
    "OBJECTID": "13659",
    "ID": "116810035",
    "NAME": "HENRY J. CARTER SPECIALTY HOSPITAL",
    "ADDRESS": "1752 PARK AVENUE",
    "CITY": "NEW YORK",
    "STATE": "NY",
    "ZIP": "10035",
    "ZIP4": "NOT AVAILABLE",
    "TELEPHONE": "(212) 318-8000",
    "TYPE": "LONG TERM CARE",
    "STATUS": "OPEN",
    "POPULATION": "201",
    "COUNTY": "NEW YORK",
    "COUNTYFIPS": "36061",
    "COUNTRY": "USA",
    "LATITUDE": "40.80328511",
    "LONGITUDE": "-73.94162385",
    "NAICS_CODE": "622310",
    "NAICS_DESC": "EXTENDED CARE HOSPITALS (EXCEPT MENTAL, SUBSTANCE ABUSE)",
    "SOURCE": "http://www.health.ny.gov/regulations/hcra/provider.htm",
    "SOURCEDATE": "2017-12-21T00:00:00.000Z",
    "VAL_METHOD": "IMAGERY WITH OTHER",
    "VAL_DATE": "2017-12-22T00:00:00.000Z",
    "WEBSITE": "http://www.nychealthandhospitals.org/carter/html/home/home.shtml",
    "STATE_ID": "7002050H",
    "ALT_NAME": "NOT AVAILABLE",
    "ST_FIPS": "36.0",
    "OWNER": "NOT AVAILABLE",
    "TTL_STAFF": "-999.0",
    "BEDS": "201.0",
    "TRAUMA": "NOT AVAILABLE",
    "HELIPAD": "NOT AVAILABLE"
  },
  {
    "X": "-73.9874019",
    "Y": "40.76982061",
    "OBJECTID": "13682",
    "ID": "118610019",
    "NAME": "MOUNT SINAI WEST",
    "ADDRESS": "1000 TENTH AVENUE",
    "CITY": "NEW YORK",
    "STATE": "NY",
    "ZIP": "10019",
    "ZIP4": "NOT AVAILABLE",
    "TELEPHONE": "(212) 523-7225",
    "TYPE": "GENERAL ACUTE CARE",
    "STATUS": "OPEN",
    "POPULATION": "514",
    "COUNTY": "NEW YORK",
    "COUNTYFIPS": "36061",
    "COUNTRY": "USA",
    "LATITUDE": "40.76982061",
    "LONGITUDE": "-73.9874019",
    "NAICS_CODE": "622110",
    "NAICS_DESC": "GENERAL MEDICAL AND SURGICAL HOSPITALS",
    "SOURCE": "http://www.health.ny.gov/regulations/hcra/provider.htm",
    "SOURCEDATE": "2017-12-21T00:00:00.000Z",
    "VAL_METHOD": "IMAGERY WITH OTHER",
    "VAL_DATE": "2017-12-22T00:00:00.000Z",
    "WEBSITE": "http://www.roosevelthospitalnyc.org/index.aspx",
    "STATE_ID": "NOT AVAILABLE",
    "ALT_NAME": "MOUNT SINAI ROOSEVELT",
    "ST_FIPS": "36.0",
    "OWNER": "NON-PROFIT",
    "TTL_STAFF": "-999.0",
    "BEDS": "514.0",
    "TRAUMA": "NOT AVAILABLE",
    "HELIPAD": "NOT AVAILABLE"
  },
  {
    "X": "-73.96159035",
    "Y": "40.80492254",
    "OBJECTID": "13692",
    "ID": "118710025",
    "NAME": "MOUNT SINAI ST. LUKE'S",
    "ADDRESS": "1111 AMSTERDAM AVENUE",
    "CITY": "NEW YORK",
    "STATE": "NY",
    "ZIP": "10025",
    "ZIP4": "NOT AVAILABLE",
    "TELEPHONE": "(212) 523-4295",
    "TYPE": "GENERAL ACUTE CARE",
    "STATUS": "OPEN",
    "POPULATION": "495",
    "COUNTY": "NEW YORK",
    "COUNTYFIPS": "36061",
    "COUNTRY": "USA",
    "LATITUDE": "40.80492254",
    "LONGITUDE": "-73.96159035",
    "NAICS_CODE": "622110",
    "NAICS_DESC": "GENERAL MEDICAL AND SURGICAL HOSPITALS",
    "SOURCE": "http://www.health.ny.gov/regulations/hcra/provider.htm",
    "SOURCEDATE": "2017-12-21T00:00:00.000Z",
    "VAL_METHOD": "IMAGERY WITH OTHER",
    "VAL_DATE": "2017-12-22T00:00:00.000Z",
    "WEBSITE": "http://www.stlukeshospitalnyc.org/index.aspx",
    "STATE_ID": "7002032H",
    "ALT_NAME": "NOT AVAILABLE",
    "ST_FIPS": "36.0",
    "OWNER": "NON-PROFIT",
    "TTL_STAFF": "-999.0",
    "BEDS": "495.0",
    "TRAUMA": "II",
    "HELIPAD": "NOT AVAILABLE"
  },
  {
    "X": "-73.94068652",
    "Y": "40.84105288",
    "OBJECTID": "13693",
    "ID": "118810032",
    "NAME": "NEW YORK PRESBYTERIAN HOSPITAL - COLUMBIA PRESBYTERIAN CENTER",
    "ADDRESS": "622 WEST 168TH STREET",
    "CITY": "NEW YORK",
    "STATE": "NY",
    "ZIP": "10032",
    "ZIP4": "NOT AVAILABLE",
    "TELEPHONE": "(212) 305-2500",
    "TYPE": "GENERAL ACUTE CARE",
    "STATUS": "OPEN",
    "POPULATION": "1007",
    "COUNTY": "NEW YORK",
    "COUNTYFIPS": "36061",
    "COUNTRY": "USA",
    "LATITUDE": "40.84105288",
    "LONGITUDE": "-73.94068652",
    "NAICS_CODE": "622110",
    "NAICS_DESC": "GENERAL MEDICAL AND SURGICAL HOSPITALS",
    "SOURCE": "http://www.health.ny.gov/regulations/hcra/provider.htm",
    "SOURCEDATE": "2017-12-21T00:00:00.000Z",
    "VAL_METHOD": "IMAGERY WITH OTHER",
    "VAL_DATE": "2017-12-22T00:00:00.000Z",
    "WEBSITE": "http://www.nyp.org/locations/newyork-presbyterian-columbia-university-medical-center",
    "STATE_ID": "7002054H",
    "ALT_NAME": "NOT AVAILABLE",
    "ST_FIPS": "36.0",
    "OWNER": "NON-PROFIT",
    "TTL_STAFF": "-999.0",
    "BEDS": "1007.0",
    "TRAUMA": "NOT AVAILABLE",
    "HELIPAD": "NOT AVAILABLE"
  },
  {
    "X": "-73.95433226",
    "Y": "40.76454994",
    "OBJECTID": "13694",
    "ID": "118910021",
    "NAME": "NEW YORK PRESBYTERIAN HOSPITAL - NEW YORK WEILL CORNELL CENTER",
    "ADDRESS": "525 EAST 68TH STREET",
    "CITY": "NEW YORK",
    "STATE": "NY",
    "ZIP": "10021",
    "ZIP4": "NOT AVAILABLE",
    "TELEPHONE": "(212) 746-5454",
    "TYPE": "GENERAL ACUTE CARE",
    "STATUS": "OPEN",
    "POPULATION": "862",
    "COUNTY": "NEW YORK",
    "COUNTYFIPS": "36061",
    "COUNTRY": "USA",
    "LATITUDE": "40.76454994",
    "LONGITUDE": "-73.95433226",
    "NAICS_CODE": "622110",
    "NAICS_DESC": "GENERAL MEDICAL AND SURGICAL HOSPITALS",
    "SOURCE": "http://www.health.ny.gov/regulations/hcra/provider.htm",
    "SOURCEDATE": "2017-12-21T00:00:00.000Z",
    "VAL_METHOD": "IMAGERY WITH OTHER",
    "VAL_DATE": "2017-12-22T00:00:00.000Z",
    "WEBSITE": "http://www.nyp.org/",
    "STATE_ID": "7002025H",
    "ALT_NAME": "NOT AVAILABLE",
    "ST_FIPS": "36.0",
    "OWNER": "NON-PROFIT",
    "TTL_STAFF": "-999.0",
    "BEDS": "862.0",
    "TRAUMA": "I, II PEDIATRIC",
    "HELIPAD": "NOT AVAILABLE"
  },
  {
    "X": "-74.00529783",
    "Y": "40.71051679",
    "OBJECTID": "13697",
    "ID": "119310038",
    "NAME": "NEW YORK-PRESBYTERIAN/LOWER MANHATTAN HOSPITAL",
    "ADDRESS": "170 WILLIAM STREET",
    "CITY": "NEW YORK",
    "STATE": "NY",
    "ZIP": "10038",
    "ZIP4": "NOT AVAILABLE",
    "TELEPHONE": "(212) 312-5175",
    "TYPE": "GENERAL ACUTE CARE",
    "STATUS": "OPEN",
    "POPULATION": "180",
    "COUNTY": "NEW YORK",
    "COUNTYFIPS": "36061",
    "COUNTRY": "USA",
    "LATITUDE": "40.71051679",
    "LONGITUDE": "-74.00529783",
    "NAICS_CODE": "622110",
    "NAICS_DESC": "GENERAL MEDICAL AND SURGICAL HOSPITALS",
    "SOURCE": "http://www.health.ny.gov/regulations/hcra/provider.htm",
    "SOURCEDATE": "2017-12-21T00:00:00.000Z",
    "VAL_METHOD": "IMAGERY WITH OTHER",
    "VAL_DATE": "2017-12-22T00:00:00.000Z",
    "WEBSITE": "http://www.nyp.org/lowermanhattan",
    "STATE_ID": "NOT AVAILABLE",
    "ALT_NAME": "NEW YORK DOWNTOWN HOSPITAL",
    "ST_FIPS": "36.0",
    "OWNER": "NON-PROFIT",
    "TTL_STAFF": "-999.0",
    "BEDS": "180.0",
    "TRAUMA": "NOT AVAILABLE",
    "HELIPAD": "NOT AVAILABLE"
  },
  {
    "X": "-73.97392933",
    "Y": "40.7420469",
    "OBJECTID": "13698",
    "ID": "119410016",
    "NAME": "NYU HOSPITALS CENTER",
    "ADDRESS": "550 FIRST AVENUE",
    "CITY": "NEW YORK",
    "STATE": "NY",
    "ZIP": "10016",
    "ZIP4": "NOT AVAILABLE",
    "TELEPHONE": "(212) 263-5500",
    "TYPE": "GENERAL ACUTE CARE",
    "STATUS": "OPEN",
    "POPULATION": "844",
    "COUNTY": "NEW YORK",
    "COUNTYFIPS": "36061",
    "COUNTRY": "USA",
    "LATITUDE": "40.7420469",
    "LONGITUDE": "-73.97392933",
    "NAICS_CODE": "622110",
    "NAICS_DESC": "GENERAL MEDICAL AND SURGICAL HOSPITALS",
    "SOURCE": "http://www.health.ny.gov/regulations/hcra/provider.htm",
    "SOURCEDATE": "2017-12-21T00:00:00.000Z",
    "VAL_METHOD": "IMAGERY WITH OTHER",
    "VAL_DATE": "2017-12-22T00:00:00.000Z",
    "WEBSITE": "http://nyulangone.org/locations/tisch-hospital",
    "STATE_ID": "7002053H",
    "ALT_NAME": "NOT AVAILABLE",
    "ST_FIPS": "36.0",
    "OWNER": "NOT AVAILABLE",
    "TTL_STAFF": "-999.0",
    "BEDS": "844.0",
    "TRAUMA": "NOT AVAILABLE",
    "HELIPAD": "NOT AVAILABLE"
  },
  {
    "X": "-73.98177078",
    "Y": "40.73310481",
    "OBJECTID": "13712",
    "ID": "121210003",
    "NAME": "MOUNT SINAI BETH ISRAEL",
    "ADDRESS": "FIRST AVE AT 16TH STREET",
    "CITY": "NEW YORK",
    "STATE": "NY",
    "ZIP": "10003",
    "ZIP4": "NOT AVAILABLE",
    "TELEPHONE": "(212) 420-2873",
    "TYPE": "GENERAL ACUTE CARE",
    "STATUS": "OPEN",
    "POPULATION": "825",
    "COUNTY": "NEW YORK",
    "COUNTYFIPS": "36061",
    "COUNTRY": "USA",
    "LATITUDE": "40.73310481",
    "LONGITUDE": "-73.98177078",
    "NAICS_CODE": "622110",
    "NAICS_DESC": "GENERAL MEDICAL AND SURGICAL HOSPITALS",
    "SOURCE": "http://www.health.ny.gov/regulations/hcra/provider.htm",
    "SOURCEDATE": "2017-12-21T00:00:00.000Z",
    "VAL_METHOD": "IMAGERY WITH OTHER",
    "VAL_DATE": "2017-12-22T00:00:00.000Z",
    "WEBSITE": "http://www.bethisraelny.org/",
    "STATE_ID": "7002002H",
    "ALT_NAME": "NOT AVAILABLE",
    "ST_FIPS": "36.0",
    "OWNER": "NON-PROFIT",
    "TTL_STAFF": "-999.0",
    "BEDS": "825.0",
    "TRAUMA": "NOT AVAILABLE",
    "HELIPAD": "NOT AVAILABLE"
  },
  {
    "X": "-73.97707927",
    "Y": "40.73688147",
    "OBJECTID": "13724",
    "ID": "10710010",
    "NAME": "VA MEDICAL CENTER - MANHATTAN CAMPUS",
    "ADDRESS": "423 E 23RD ST",
    "CITY": "NEW YORK",
    "STATE": "NY",
    "ZIP": "10010",
    "ZIP4": "NOT AVAILABLE",
    "TELEPHONE": "NOT AVAILABLE",
    "TYPE": "MILITARY",
    "STATUS": "OPEN",
    "POPULATION": "-999",
    "COUNTY": "NEW YORK",
    "COUNTYFIPS": "36061",
    "COUNTRY": "USA",
    "LATITUDE": "40.73688147",
    "LONGITUDE": "-73.97707927",
    "NAICS_CODE": "622110",
    "NAICS_DESC": "GENERAL MEDICAL AND SURGICAL HOSPITALS",
    "SOURCE": "https://www.va.gov/directory/guide/division.asp?dnum=1",
    "SOURCEDATE": "2017-12-14T00:00:00.000Z",
    "VAL_METHOD": "IMAGERY WITH OTHER",
    "VAL_DATE": "2018-05-15T00:00:00.000Z",
    "WEBSITE": "http://www.nyharbor.va.gov/",
    "STATE_ID": "NOT AVAILABLE",
    "ALT_NAME": "NOT AVAILABLE",
    "ST_FIPS": "36.0",
    "OWNER": "GOVERNMENT - FEDERAL",
    "TTL_STAFF": "-999.0",
    "BEDS": "-999.0",
    "TRAUMA": "NOT AVAILABLE",
    "HELIPAD": "N"
  },
  {
    "X": "-73.94454839",
    "Y": "40.84240204",
    "OBJECTID": "14264",
    "ID": "167684167",
    "NAME": "NEW YORK PSYCHIATRIC INSTITUTE",
    "ADDRESS": "1051 RIVERSIDE DRIVE",
    "CITY": "NEW YORK",
    "STATE": "NY",
    "ZIP": "10032",
    "ZIP4": "NOT AVAILABLE",
    "TELEPHONE": "NOT AVAILABLE",
    "TYPE": "PSYCHIATRIC",
    "STATUS": "OPEN",
    "POPULATION": "-999",
    "COUNTY": "NEW YORK",
    "COUNTYFIPS": "36061",
    "COUNTRY": "USA",
    "LATITUDE": "40.84240204",
    "LONGITUDE": "-73.94454839",
    "NAICS_CODE": "622210",
    "NAICS_DESC": "HOSPITALS, PSYCHIATRIC (EXCEPT CONVALESCENT)",
    "SOURCE": "http://bi.omh.ny.gov/bridges/directory",
    "SOURCEDATE": "2017-12-21T00:00:00.000Z",
    "VAL_METHOD": "IMAGERY",
    "VAL_DATE": "2017-12-22T00:00:00.000Z",
    "WEBSITE": "https://nyspi.org/",
    "STATE_ID": "NOT AVAILABLE",
    "ALT_NAME": "NOT AVAILABLE",
    "ST_FIPS": "36.0",
    "OWNER": "GOVERNMENT - STATE",
    "TTL_STAFF": "-999.0",
    "BEDS": "-999.0",
    "TRAUMA": "NOT AVAILABLE",
    "HELIPAD": "NOT AVAILABLE"
  },
  {
    "X": "-73.94214388",
    "Y": "40.77030214",
    "OBJECTID": "14318",
    "ID": "19010044",
    "NAME": "COLER-GOLDWATER SPECIALTY HOSPITAL & NURSING FACILITY - COLER HOSPITAL SITE",
    "ADDRESS": "900 MAIN STREET ROOSEVELT ISLAND",
    "CITY": "NEW YORK",
    "STATE": "NY",
    "ZIP": "10044",
    "ZIP4": "NOT AVAILABLE",
    "TELEPHONE": "(212) 848-6000",
    "TYPE": "LONG TERM CARE",
    "STATUS": "CLOSED",
    "POPULATION": "210",
    "COUNTY": "NEW YORK",
    "COUNTYFIPS": "36061",
    "COUNTRY": "USA",
    "LATITUDE": "40.77030214",
    "LONGITUDE": "-73.94214388",
    "NAICS_CODE": "622310",
    "NAICS_DESC": "EXTENDED CARE HOSPITALS (EXCEPT MENTAL, SUBSTANCE ABUSE)",
    "SOURCE": "http://www.health.ny.gov/regulations/hcra/provider.htm",
    "SOURCEDATE": "2017-12-21T00:00:00.000Z",
    "VAL_METHOD": "IMAGERY WITH OTHER",
    "VAL_DATE": "2017-12-22T00:00:00.000Z",
    "WEBSITE": "http://www.nychealthandhospitals.org/coler/",
    "STATE_ID": "7002051H",
    "ALT_NAME": "NOT AVAILABLE",
    "ST_FIPS": "36.0",
    "OWNER": "GOVERNMENT - LOCAL",
    "TTL_STAFF": "-999.0",
    "BEDS": "210.0",
    "TRAUMA": "NOT AVAILABLE",
    "HELIPAD": "NOT AVAILABLE"
  },
  {
    "X": "-73.95659552",
    "Y": "40.76427432",
    "OBJECTID": "8449",
    "ID": "117510021",
    "NAME": "MEMORIAL HOSPITAL FOR CANCER AND ALLIED DISEASES",
    "ADDRESS": "1275 YORK AVENUE",
    "CITY": "NEW YORK",
    "STATE": "NY",
    "ZIP": "10021",
    "ZIP4": "NOT AVAILABLE",
    "TELEPHONE": "(212) 639-2000",
    "TYPE": "SPECIAL",
    "STATUS": "OPEN",
    "POPULATION": "514",
    "COUNTY": "NEW YORK",
    "COUNTYFIPS": "36061",
    "COUNTRY": "USA",
    "LATITUDE": "40.76427432",
    "LONGITUDE": "-73.95659552",
    "NAICS_CODE": "622310",
    "NAICS_DESC": "CANCER HOSPITALS",
    "SOURCE": "http://www.health.ny.gov/regulations/hcra/provider.htm",
    "SOURCEDATE": "2017-12-21T00:00:00.000Z",
    "VAL_METHOD": "IMAGERY WITH OTHER",
    "VAL_DATE": "2017-12-22T00:00:00.000Z",
    "WEBSITE": "https://www.mskcc.org/",
    "STATE_ID": "7002020H",
    "ALT_NAME": "NOT AVAILABLE",
    "ST_FIPS": "36.0",
    "OWNER": "NON-PROFIT",
    "TTL_STAFF": "-999.0",
    "BEDS": "514.0",
    "TRAUMA": "NOT AVAILABLE",
    "HELIPAD": "NOT AVAILABLE"
  }
]